City_ID,City,Lat,Lng,Max Temp,Humidity,Cloudiness,Wind Speed,Country,Date
0,Nikki,9.94,3.21,97.27,13,94,3.74,BJ,12/5/2020 14:41
1,Mataura,-46.19,168.86,48,81,23,1.99,NZ,12/5/2020 14:41
2,Saint George,37.1,-113.58,28.4,36,1,2.86,US,12/5/2020 14:39
3,Cocorit,27.58,-109.97,41,56,5,3.36,MX,12/5/2020 14:41
4,Pevek,69.7,170.31,0.48,90,64,9.17,RU,12/5/2020 14:41
5,Doha,25.29,51.53,80.6,78,20,12.75,QA,12/5/2020 14:41
6,Kapuskasing,49.42,-82.43,14,92,69,3.36,CA,12/5/2020 14:41
7,Las Vegas,36.17,-115.14,39.99,29,1,4.7,US,12/5/2020 14:37
8,Ahipara,-35.17,173.17,58.28,86,33,8.08,NZ,12/5/2020 14:41
9,Tiksi,71.69,128.87,-14.55,88,38,6.64,RU,12/5/2020 14:41
10,Hobart,-42.88,147.33,55,93,40,6.93,AU,12/5/2020 14:40
11,Khatanga,71.97,102.5,18.19,96,100,17.05,RU,12/5/2020 14:41
12,Cayenne,4.93,-52.33,82.4,88,75,3.36,GF,12/5/2020 14:38
13,Vila Franca Do Campo,37.72,-25.43,59,72,75,9.17,PT,12/5/2020 14:41
14,Arraial Do Cabo,-22.97,-42.03,84.2,74,75,8.05,BR,12/5/2020 14:41
15,Hermanus,-34.42,19.23,75.99,57,75,8.01,ZA,12/5/2020 14:37
16,Columbus,39.96,-83,39,81,75,6.93,US,12/5/2020 14:38
17,Thompson,55.74,-97.86,12.2,92,90,5.3,CA,12/5/2020 14:41
18,Ushuaia,-54.8,-68.3,53.6,66,75,13.87,AR,12/5/2020 14:41
19,Rikitea,-23.12,-134.97,76.17,76,0,13.51,PF,12/5/2020 14:41
20,Ambilobe,-13.2,49.05,80.71,74,66,4.12,MG,12/5/2020 14:41
21,Kuusamo,65.97,29.18,30.2,92,90,9.17,FI,12/5/2020 14:41
22,Albany,42.6,-73.97,39,76,100,1.01,US,12/5/2020 14:40
23,Pangnirtung,66.15,-65.71,13.89,86,84,3.4,CA,12/5/2020 14:41
24,Lakatoro,-16.1,167.42,77.54,80,87,3.85,VU,12/5/2020 14:41
25,Hilo,19.73,-155.09,69.8,77,40,5.82,US,12/5/2020 14:39
26,Lompoc,34.64,-120.46,41,59,1,8.05,US,12/5/2020 14:41
27,Leh,34.17,77.58,18.66,78,66,2.26,IN,12/5/2020 14:41
28,Kisangani,0.52,25.2,82.18,73,54,0.94,CD,12/5/2020 14:41
29,Hithadhoo,-0.6,73.08,83.03,77,12,19.46,MV,12/5/2020 14:41
30,Saskylakh,71.92,114.08,3.54,92,100,20.56,RU,12/5/2020 14:41
31,Necochea,-38.55,-58.74,72,36,0,6.44,AR,12/5/2020 14:41
32,Bilma,18.69,12.92,91.2,11,0,8.1,NE,12/5/2020 14:41
33,Hinesville,31.85,-81.6,46.99,70,1,10.29,US,12/5/2020 14:37
34,Ilulissat,69.22,-51.1,28.4,74,75,5.82,GL,12/5/2020 14:41
35,Victoria,22.29,114.16,64,64,0,7,HK,12/5/2020 14:38
36,Chissamba,-12.17,17.33,70.43,84,99,3.65,AO,12/5/2020 14:41
37,Los Llanos De Aridane,28.66,-17.92,68,60,40,21.92,ES,12/5/2020 14:41
38,Punta Arenas,-53.15,-70.92,55.4,66,0,23.04,CL,12/5/2020 14:38
39,Vostok,46.49,135.88,3.49,96,89,4.63,RU,12/5/2020 14:41
40,Nosy Varika,-20.58,48.53,79.45,77,100,6.13,MG,12/5/2020 14:41
41,Yellowknife,62.46,-114.35,23,92,75,9.17,CA,12/5/2020 14:41
42,Lagoa,39.05,-27.98,60.66,65,100,8.25,PT,12/5/2020 14:41
43,Nikolskoye,59.7,30.79,36,89,90,13.42,RU,12/5/2020 14:41
44,Carnarvon,-24.87,113.63,71.6,83,74,17.22,AU,12/5/2020 14:41
45,Cherskiy,68.75,161.3,-8.52,80,76,2.46,RU,12/5/2020 14:41
46,Iki-Burul,45.82,44.65,21.2,62,0,15.66,RU,12/5/2020 14:41
47,San Cristobal,7.77,-72.22,80.6,74,20,4.7,VE,12/5/2020 14:41
48,Butaritari,3.07,172.79,80.71,79,63,9.31,KI,12/5/2020 14:41
49,Azare,11.68,10.19,94.32,12,88,7.38,NG,12/5/2020 14:41
50,Harper,4.38,-7.72,82.96,74,73,8.01,LR,12/5/2020 14:41
51,Puerto Ayora,-0.74,-90.35,77,65,0,11.41,EC,12/5/2020 14:38
52,Provideniya,64.38,-173.3,15.96,86,1,2.75,RU,12/5/2020 14:41
53,Bethel,41.37,-73.41,35.6,93,90,12.75,US,12/5/2020 14:41
54,Saint-Philippe,-21.36,55.77,82.4,69,40,3.36,RE,12/5/2020 14:41
55,Plettenberg Bay,-34.05,23.37,68.72,75,0,15.61,ZA,12/5/2020 14:41
56,Cape Town,-33.93,18.42,80.6,42,0,16.11,ZA,12/5/2020 14:41
57,Teya,60.38,92.63,2.82,88,100,9.37,RU,12/5/2020 14:41
58,Broome,42.25,-75.83,39,80,90,12.75,US,12/5/2020 14:41
59,Kalevala,65.2,31.17,36.72,97,100,10.67,RU,12/5/2020 14:41
60,Oulainen,64.27,24.8,33.01,97,100,5.01,FI,12/5/2020 14:41
61,Kirkwall,58.98,-2.96,44.6,81,75,8.05,GB,12/5/2020 14:41
62,Kaitangata,-46.28,169.85,46,79,9,3,NZ,12/5/2020 14:41
63,Bluff,-46.6,168.33,48,81,17,1.99,NZ,12/5/2020 14:41
64,Lebu,-37.62,-73.65,61.11,59,0,12.26,CL,12/5/2020 14:41
65,Vuktyl,63.86,57.31,9.28,95,96,9.82,RU,12/5/2020 14:41
66,Dikson,73.51,80.55,15.22,93,87,12.66,RU,12/5/2020 14:41
67,Hinton,53.4,-117.59,14,92,100,2.24,CA,12/5/2020 14:41
68,Tenamaxtlan,20.22,-104.17,57,97,43,1.1,MX,12/5/2020 14:41
69,Kapaa,22.08,-159.32,78.8,78,40,11.41,US,12/5/2020 14:41
70,Scarborough,54.28,-0.4,45,80,20,5.01,GB,12/5/2020 14:41
71,Havre,49.58,0.33,39.2,93,100,13.87,FR,12/5/2020 14:41
72,Lensk,60.73,114.93,1.65,89,100,17.58,RU,12/5/2020 14:41
73,Gwadar,25.12,62.33,77.67,59,0,7.23,PK,12/5/2020 14:41
74,Avarua,-21.21,-159.78,77,94,0,6.93,CK,12/5/2020 14:41
75,Vaini,-21.2,-175.2,75.2,88,75,6.93,TO,12/5/2020 14:41
76,Busselton,-33.65,115.33,52.29,83,0,7.78,AU,12/5/2020 14:41
77,Slave Lake,55.28,-114.77,23,85,1,4.7,CA,12/5/2020 14:41
78,Fare,-16.7,-151.02,80.1,78,100,17.78,PF,12/5/2020 14:41
79,San Patricio,28.02,-97.52,51.8,66,90,6.93,US,12/5/2020 14:41
80,Codrington,-38.27,141.97,51.13,78,83,16.89,AU,12/5/2020 14:41
81,Souillac,-20.52,57.52,80.6,74,75,4.7,MU,12/5/2020 14:41
82,Nicoya,10.15,-85.45,82.4,65,0,13.87,CR,12/5/2020 14:41
83,Qaanaaq,77.48,-69.36,-14.17,68,0,7,GL,12/5/2020 14:41
84,Obo,5.4,26.49,90.28,27,83,2.89,CF,12/5/2020 14:41
85,Severnoye,56.35,78.36,5.41,94,97,5.57,RU,12/5/2020 14:41
86,Nemuro,43.32,145.57,38.77,73,0,20.31,JP,12/5/2020 14:41
87,Mar Del Plata,-38,-57.56,59,54,20,8.05,AR,12/5/2020 14:39
88,Madrid,40.42,-3.7,46,58,40,10.29,ES,12/5/2020 14:41
89,Portland,45.52,-122.68,43,64,1,14.99,US,12/5/2020 14:40
90,Te Anau,-45.42,167.72,40.57,86,56,0.85,NZ,12/5/2020 14:41
91,Suihua,46.64,127,3.33,94,4,6.55,CN,12/5/2020 14:41
92,Qaqortoq,60.72,-46.03,33.8,80,75,3.36,GL,12/5/2020 14:41
93,Marawi,8,124.29,78.01,92,98,3,PH,12/5/2020 14:41
94,Torbay,47.67,-52.73,48.2,87,75,14.99,CA,12/5/2020 14:41
95,Flinders,-34.58,150.86,73,60,40,19.46,AU,12/5/2020 14:41
96,Poddorye,57.47,31.12,32.43,94,100,12.03,RU,12/5/2020 14:41
97,Mahebourg,-20.41,57.7,80.6,74,75,4.7,MU,12/5/2020 14:41
98,Honiara,-9.43,159.95,77,94,40,4.7,SB,12/5/2020 14:37
99,Alice Springs,-23.7,133.88,80.6,65,75,3.36,AU,12/5/2020 14:41
100,Verkhnyaya Toyma,62.23,45,25.5,97,100,7.09,RU,12/5/2020 14:41
101,Talara,-4.58,-81.27,73.4,69,0,16.11,PE,12/5/2020 14:41
102,Berlevag,70.86,29.09,30.2,86,75,32.21,NO,12/5/2020 14:41
103,Kudahuvadhoo,2.67,72.89,81.97,78,62,13.33,MV,12/5/2020 14:41
104,Comodoro Rivadavia,-45.87,-67.5,69.8,49,0,6.93,AR,12/5/2020 14:40
105,Tual,-5.67,132.75,84.76,69,93,2.77,ID,12/5/2020 14:41
106,Athabasca,54.72,-113.29,26.6,73,0,4.7,CA,12/5/2020 14:40
107,Luderitz,-26.65,15.16,68.02,67,3,19.86,NA,12/5/2020 14:41
108,Bambous Virieux,-20.34,57.76,80.6,74,75,4.7,MU,12/5/2020 14:41
109,Jamestown,42.1,-79.24,35.01,94,90,9.17,US,12/5/2020 14:39
110,Sola,-13.88,167.55,78.37,87,54,1.23,VU,12/5/2020 14:41
111,Geraldton,-28.77,114.6,66.2,72,40,17.22,AU,12/5/2020 14:41
112,Kruisfontein,-34,24.73,75,64,17,10,ZA,12/5/2020 14:41
113,Tevriz,57.51,72.4,6.21,95,63,4.7,RU,12/5/2020 14:41
114,Hami,42.8,93.45,20.12,81,81,4.65,CN,12/5/2020 14:41
115,Atuona,-9.8,-139.03,78.21,71,98,17.72,PF,12/5/2020 14:41
116,Sobolevo,54.43,31.9,26.24,95,0,11.97,RU,12/5/2020 14:41
117,Great Yarmouth,52.61,1.73,46.4,65,40,6.85,GB,12/5/2020 14:40
118,Abong Mbang,3.98,13.18,91.51,24,7,5.1,CM,12/5/2020 14:41
119,Strezhevoy,60.73,77.59,19.4,92,90,4.47,RU,12/5/2020 14:41
120,Sabha,27.04,14.43,77.95,16,0,17.16,LY,12/5/2020 14:41
121,Ambovombe,-25.17,46.08,72.19,73,91,19.24,MG,12/5/2020 14:41
122,Buenos Aires,-34.61,-58.38,68,48,40,9.17,AR,12/5/2020 14:41
123,Abiramam,9.47,78.45,78.8,74,40,5.82,IN,12/5/2020 14:41
124,Sambava,-14.27,50.17,79.09,78,43,6.78,MG,12/5/2020 14:41
125,Danielskuil,-28.19,23.54,80.26,27,71,13.56,ZA,12/5/2020 14:41
126,Lasa,46.62,10.7,30.2,92,90,2.24,IT,12/5/2020 14:41
127,Chapais,49.78,-74.85,17.6,85,90,4.7,CA,12/5/2020 14:41
128,Cabinda,-5.55,12.2,76.08,91,100,9.01,AO,12/5/2020 14:41
129,Bredasdorp,-34.53,20.04,71.6,60,33,18.34,ZA,12/5/2020 14:41
130,Iquique,-20.22,-70.14,69.8,64,0,13.87,CL,12/5/2020 14:41
131,Aklavik,68.22,-135.01,-22,74,5,2.21,CA,12/5/2020 14:41
132,Tuatapere,-46.13,167.68,48,81,88,1.99,NZ,12/5/2020 14:42
133,Bom Jardim,-7.8,-35.59,87.8,48,75,16.11,BR,12/5/2020 14:42
134,Srednekolymsk,67.45,153.68,-27.02,86,62,0.67,RU,12/5/2020 14:42
135,New Norfolk,-42.78,147.06,55,71,47,3,AU,12/5/2020 14:42
136,Chuy,-33.7,-53.46,61.11,55,98,8.55,UY,12/5/2020 14:42
137,Iberia,29.95,-91.75,46,93,1,6.93,US,12/5/2020 14:41
138,Port Macquarie,-31.43,152.92,78.8,74,75,6.93,AU,12/5/2020 14:42
139,Santa Fe,-31.63,-60.7,73,34,0,4,AR,12/5/2020 14:39
140,Guerrero Negro,27.98,-114.06,54.79,37,0,3.4,MX,12/5/2020 14:42
141,Kuala Terengganu,5.33,103.14,80.6,83,40,3.36,MY,12/5/2020 14:42
142,Airai,-8.93,125.41,63.07,100,100,1.21,TL,12/5/2020 14:42
143,Campoverde,-8.48,-74.81,77,83,75,5.82,PE,12/5/2020 14:42
144,Sandata,46.27,41.76,28.09,81,0,16.46,RU,12/5/2020 14:42
145,Barrow,71.29,-156.79,8.6,71,90,25.28,US,12/5/2020 14:42
146,Tuktoyaktuk,69.45,-133.04,-5.8,76,5,9.17,CA,12/5/2020 14:42
147,Moerai,-22.43,-151.33,78.75,80,100,12.8,PF,12/5/2020 14:42
148,La Paz,-16.5,-68.15,50,76,75,4.7,BO,12/5/2020 14:41
149,Villa Rica,33.73,-84.92,39.99,91,0,7,US,12/5/2020 14:42
150,Honningsvag,70.98,25.97,35.1,84,100,12.15,NO,12/5/2020 14:42
151,Upernavik,72.79,-56.15,6.48,92,96,15.01,GL,12/5/2020 14:42
152,East London,-33.02,27.91,66.2,88,90,17.22,ZA,12/5/2020 14:42
153,Saldanha,-33.01,17.94,86,25,0,16.11,ZA,12/5/2020 14:42
154,Dunedin,-45.87,170.5,51.01,78,48,7.76,NZ,12/5/2020 14:42
155,Oktyabrskiy,54.48,53.47,4.01,89,0,2.51,RU,12/5/2020 14:42
156,Severo-Kurilsk,50.68,156.12,28.74,93,100,11.54,RU,12/5/2020 14:42
157,Kutum,14.2,24.67,82.51,15,0,6.17,SD,12/5/2020 14:42
158,Tasiilaq,65.61,-37.64,24.8,68,75,5.82,GL,12/5/2020 14:42
159,Pahrump,36.21,-115.98,35.6,12,1,4.7,US,12/5/2020 14:39
160,Inirida,3.87,-67.92,87.04,66,100,2.68,CO,12/5/2020 14:42
161,Rafraf,37.19,10.18,69.8,49,40,9.17,TN,12/5/2020 14:42
162,Beloha,-25.17,45.05,73.62,63,63,16.78,MG,12/5/2020 14:42
163,Hasaki,35.73,140.83,44.6,93,75,4.7,JP,12/5/2020 14:42
164,Chokurdakh,70.63,147.92,-28.95,85,90,7.11,RU,12/5/2020 14:42
165,Naze,28.37,129.48,66.2,88,90,17.22,JP,12/5/2020 14:42
166,Berdigestyakh,62.1,126.7,-8.03,90,100,6.8,RU,12/5/2020 14:42
167,Kodiak,57.79,-152.41,21.2,79,1,9.17,US,12/5/2020 14:42
168,Barra Do Garcas,-15.89,-52.26,93.2,41,0,4.7,BR,12/5/2020 14:42
169,Half Moon Bay,37.46,-122.43,46.4,65,1,2.48,US,12/5/2020 14:42
170,Grand Gaube,-20.01,57.66,75,88,97,8.46,MU,12/5/2020 14:42
171,Russell,32.35,-85.2,43,93,1,5.82,US,12/5/2020 14:42
172,Port Blair,11.67,92.75,80.4,75,70,14.58,IN,12/5/2020 14:42
173,Boyolangu,-8.12,111.89,75.9,91,100,4.83,ID,12/5/2020 14:42
174,Tanout,14.97,8.89,92.19,11,12,5.23,NE,12/5/2020 14:42
175,Port Alfred,-33.59,26.89,70.56,74,29,24.67,ZA,12/5/2020 14:42
176,Nizhnevartovsk,60.93,76.55,19.4,92,90,4.47,RU,12/5/2020 14:42
177,La Rioja,42.25,-2.5,46.99,65,75,16.11,ES,12/5/2020 14:42
178,Monrovia,6.3,-10.8,89.6,66,75,9.17,LR,12/5/2020 14:37
179,Namatanai,-3.67,152.43,80.83,71,100,8.93,PG,12/5/2020 14:42
180,Sterlibashevo,53.44,55.26,5.85,94,8,3.96,RU,12/5/2020 14:42
181,Trairi,-3.28,-39.27,89.42,50,15,15.75,BR,12/5/2020 14:38
182,Vao,-22.67,167.48,74.3,85,10,17.38,NC,12/5/2020 14:42
183,Pontianak,-0.03,109.33,74.71,88,100,3.67,ID,12/5/2020 14:42
184,Sabzevar,36.21,57.68,50,53,20,1.77,IR,12/5/2020 14:42
185,Fort Nelson,58.81,-122.7,28.4,92,90,4.7,CA,12/5/2020 14:42
186,Georgetown,5.41,100.34,82.4,74,20,6.93,MY,12/5/2020 14:39
187,Tyrma,50.08,132.17,4.37,93,15,1.88,RU,12/5/2020 14:42
188,Oum Hadjer,13.3,19.7,96.08,10,0,1.61,TD,12/5/2020 14:42
189,Sinnamary,5.38,-52.95,82.51,76,49,5.37,GF,12/5/2020 14:42
190,Dukat,62.55,155.55,-3.98,91,100,4.38,RU,12/5/2020 14:42
191,Lata,40.16,-8.33,54,81,32,1.01,PT,12/5/2020 14:42
192,Nouadhibou,20.93,-17.03,77,53,0,17.22,MR,12/5/2020 14:42
193,Hun,29.13,15.95,78.6,18,0,9.37,LY,12/5/2020 14:42
194,Komsomolskiy,40.43,71.72,35.6,64,100,4.7,UZ,12/5/2020 14:42
195,Deputatskiy,69.3,139.9,-16.82,89,100,4.03,RU,12/5/2020 14:42
196,Nantucket,41.28,-70.1,51.8,93,90,14.99,US,12/5/2020 14:38
197,Le Port,-20.94,55.29,80.6,74,75,8.05,RE,12/5/2020 14:40
198,Porto Belo,-27.16,-48.55,68,94,90,10.29,BR,12/5/2020 14:42
199,Umm Lajj,25.02,37.27,74.73,45,0,12.3,SA,12/5/2020 14:42
200,Miyako,39.64,141.95,39.15,73,1,4.61,JP,12/5/2020 14:42
201,Port Elizabeth,-33.92,25.57,69.8,77,75,16.11,ZA,12/5/2020 14:42
202,Shache,38.42,77.24,19.96,91,15,1.66,CN,12/5/2020 14:42
203,Castro,-24.79,-50.01,69.31,83,98,9.08,BR,12/5/2020 14:37
204,Soubre,5.79,-6.61,88,55,98,1.45,CI,12/5/2020 14:42
205,Krasnyy Yar,46.53,48.35,26.6,38,0,8.95,RU,12/5/2020 14:42
206,Kem,64.96,34.58,34.21,97,100,13.78,RU,12/5/2020 14:42
207,Inongo,-1.95,18.27,76.82,80,33,6.62,CD,12/5/2020 14:42
208,Yar-Sale,66.83,70.83,10.99,94,51,10.74,RU,12/5/2020 14:42
209,Mason City,43.15,-93.2,24.8,92,1,1.05,US,12/5/2020 14:42
210,Gainesville,29.65,-82.32,53.01,76,1,6.93,US,12/5/2020 14:37
211,Whitehorse,60.72,-135.05,19,92,90,6.93,CA,12/5/2020 14:39
212,Talnakh,69.49,88.4,19.4,85,75,26.84,RU,12/5/2020 14:42
213,Rio Grande,-32.03,-52.1,71.6,46,40,13.87,BR,12/5/2020 14:39
214,Shingu,33.73,135.98,45.01,70,0,5.59,JP,12/5/2020 14:42
215,Gorom-Gorom,14.44,-0.24,98.19,9,37,5.91,BF,12/5/2020 14:42
216,Biak,-0.91,122.88,78.82,79,69,3.2,ID,12/5/2020 14:42
217,Ordu,40.91,37.68,53.6,100,40,2.24,TR,12/5/2020 14:40
218,Eldoret,0.52,35.27,67.44,55,19,8.23,KE,12/5/2020 14:38
219,Ulladulla,-35.35,150.47,73,60,40,19.46,AU,12/5/2020 14:42
220,Haines Junction,60.75,-137.51,12.2,72,100,9.17,CA,12/5/2020 14:42
221,Pecos,31.42,-103.49,33.8,31,40,5.82,US,12/5/2020 14:42
222,Pacific Grove,36.62,-121.92,42.8,60,1,5.82,US,12/5/2020 14:42
223,Walvis Bay,-22.96,14.51,64.99,74,12,12.39,NA,12/5/2020 14:42
224,Norman Wells,65.28,-126.83,14,92,75,5.82,CA,12/5/2020 14:42
225,Ponta Do Sol,32.67,-17.1,62.6,67,40,10.29,PT,12/5/2020 14:42
226,Svetlyy,54.67,20.13,48.2,76,0,15.66,RU,12/5/2020 14:42
227,Quatre Cocos,-20.21,57.76,80.6,74,75,4.7,MU,12/5/2020 14:42
228,Kieta,-6.22,155.63,79.2,75,43,4.12,PG,12/5/2020 14:42
229,Porto Novo,6.5,2.6,87.8,70,20,13.87,BJ,12/5/2020 14:42
230,Ancud,-41.87,-73.82,64.99,55,0,13.87,CL,12/5/2020 14:42
231,Jadu,31.95,12.03,65.66,46,0,9.19,LY,12/5/2020 14:42
232,Narasannapeta,18.42,84.05,71.82,77,55,7.74,IN,12/5/2020 14:42
233,Lerwick,60.15,-1.15,42.8,87,75,11.41,GB,12/5/2020 14:42
234,Hovd,48.01,91.64,3.76,70,0,0.81,MN,12/5/2020 14:42
235,Lovozero,68,35.01,26.22,96,100,5.26,RU,12/5/2020 14:42
236,Nome,64.5,-165.41,17.6,72,90,10.29,US,12/5/2020 14:42
237,Hambantota,6.12,81.12,80.6,88,20,2.24,LK,12/5/2020 14:42
238,Winnemucca,40.97,-117.74,12.2,78,1,4.7,US,12/5/2020 14:42
239,Yerbogachen,61.28,108.01,4.75,93,100,15.61,RU,12/5/2020 14:42
240,Qinhuangdao,39.93,119.59,28.4,74,52,7.83,CN,12/5/2020 14:42
241,Vila Velha,-20.33,-40.29,84.2,74,75,13.87,BR,12/5/2020 14:41
242,Malakal,9.53,31.66,93.07,13,0,5.53,SS,12/5/2020 14:42
243,Mehran,33.12,46.16,51.8,62,75,2.24,IR,12/5/2020 14:42
244,Beringovskiy,63.05,179.32,21.49,95,94,0.65,RU,12/5/2020 14:42
245,Sorland,67.67,12.69,35.96,92,100,30.2,NO,12/5/2020 14:42
246,Hualmay,-11.1,-77.61,71.33,67,100,9.4,PE,12/5/2020 14:42
247,Luanda,-8.84,13.23,86,62,40,12.75,AO,12/5/2020 14:38
248,Camacha,33.08,-16.33,59,67,40,21.92,PT,12/5/2020 14:42
249,Mecca,21.43,39.83,78.06,58,32,13.82,SA,12/5/2020 14:41
250,Vestmannaeyjar,63.44,-20.27,32,91,40,21.92,IS,12/5/2020 14:42
251,Caxito,-8.58,13.66,86,62,40,12.75,AO,12/5/2020 14:42
252,Fortuna,40.6,-124.16,46.99,93,1,6.93,US,12/5/2020 14:42
253,Belmonte,-15.86,-38.88,84.2,74,75,11.41,BR,12/5/2020 14:42
254,Karratha,-20.74,116.85,87.13,54,10,11.14,AU,12/5/2020 14:42
255,Chara,56.91,118.26,-7.8,74,17,4.74,RU,12/5/2020 14:42
256,Banda Aceh,5.56,95.32,76.41,86,100,3.02,ID,12/5/2020 14:42
257,Labuan,5.28,115.24,77,88,40,11.41,MY,12/5/2020 14:42
258,Lorengau,-2.02,147.27,83.19,76,53,9.08,PG,12/5/2020 14:42
259,Cherdyn,60.4,56.48,9.36,94,85,4.94,RU,12/5/2020 14:42
260,Shangrao,28.45,117.97,45.09,80,0,3.85,CN,12/5/2020 14:42
261,Tazovskiy,67.47,78.7,18.3,97,100,18.25,RU,12/5/2020 14:42
262,San Andres,12.58,-81.7,84.2,79,75,12.75,CO,12/5/2020 14:42
263,Constantine,36.37,6.61,44.6,81,75,14.99,DZ,12/5/2020 14:42
264,Cabo San Lucas,22.89,-109.91,57.2,62,5,4.7,MX,12/5/2020 14:40
265,Tokur,53.13,132.9,-8.23,91,100,3.78,RU,12/5/2020 14:42
266,Lichinga,-13.31,35.24,69.8,88,75,10.29,MZ,12/5/2020 14:42
267,Bengkulu,-3.8,102.27,77.97,81,93,4.85,ID,12/5/2020 14:42
268,Soc Trang,9.6,105.98,77,88,0,2.24,VN,12/5/2020 14:42
269,Olinda,-8.01,-34.86,84.2,58,40,10.29,BR,12/5/2020 14:42
270,Petropavlovsk-Kamchatskiy,53.05,158.65,12.2,72,100,6.71,RU,12/5/2020 14:42
271,Gweta,-20.18,25.23,83.07,47,72,14.9,BW,12/5/2020 14:42
272,Visby,57.64,18.3,46,93,98,13.87,SE,12/5/2020 14:42
273,Iqaluit,63.75,-68.51,15.8,85,90,17.22,CA,12/5/2020 14:42
274,Ihosy,-22.4,46.12,70.32,76,53,14.7,MG,12/5/2020 14:42
275,Daloa,6.88,-6.45,91.54,40,56,2.8,CI,12/5/2020 14:42
276,Tura,25.52,90.22,61.92,74,2,3.02,IN,12/5/2020 14:42
277,Chikwawa,-16.03,34.8,80.6,65,40,9.17,MW,12/5/2020 14:42
278,Lavrentiya,65.58,-171,12.9,77,0,2.84,RU,12/5/2020 14:42
279,Leningradskiy,69.38,178.42,11.64,88,91,4.36,RU,12/5/2020 14:42
280,Isilkul,54.91,71.27,-1.34,93,0,2.28,RU,12/5/2020 14:42
281,Kunya,12.22,8.53,93.2,21,0,4.7,NG,12/5/2020 14:42
282,Zorgo,12.25,-0.62,98.96,10,89,5.39,BF,12/5/2020 14:41
283,Lintangan,7.22,121.95,80.4,79,87,3.78,PH,12/5/2020 14:42
284,Pangai,-19.8,-174.35,77.05,82,100,14.94,TO,12/5/2020 14:42
285,Lakhdenpokhya,61.52,30.2,35.01,86,100,13.58,RU,12/5/2020 14:42
286,Causapscal,48.35,-67.23,33.01,1,97,0.6,CA,12/5/2020 14:42
287,Capinopolis,-18.68,-49.57,96.58,34,32,3.91,BR,12/5/2020 14:42
288,Tres Arroyos,-38.37,-60.28,75.22,20,0,2.44,AR,12/5/2020 14:42
289,Buala,-8.14,159.59,80.47,76,19,5.08,SB,12/5/2020 14:42
290,Strizhi,58.46,49.29,12.16,92,63,7.38,RU,12/5/2020 14:42
291,Ribeira Grande,38.52,-28.7,62.6,77,40,6.93,PT,12/5/2020 14:42
292,Voloshka,61.33,40.09,28.11,97,95,10.04,RU,12/5/2020 14:42
293,Ponta Delgada,37.73,-25.67,59,72,75,9.17,PT,12/5/2020 14:42
294,Varna,43.22,27.92,53.6,81,90,11.41,BG,12/5/2020 14:42
295,Prince Rupert,54.32,-130.32,48.2,87,90,18.34,CA,12/5/2020 14:42
296,Chany,55.31,76.76,-1.89,92,7,2.19,RU,12/5/2020 14:42
297,Fairbanks,64.84,-147.72,-2.2,70,90,2.77,US,12/5/2020 14:42
298,Rantepao,-2.97,119.9,68.07,88,100,2.66,ID,12/5/2020 14:37
299,Poitiers,46.58,0.33,44.01,87,100,14.99,FR,12/5/2020 14:38
300,Gillette,44.29,-105.5,32,58,1,3.36,US,12/5/2020 14:42
301,Kushmurun,52.45,64.63,1.2,92,0,6.58,KZ,12/5/2020 14:42
302,Hudson Bay,52.85,-102.38,28.76,97,73,5.41,CA,12/5/2020 14:42
303,Touros,-5.2,-35.46,86,58,40,18.34,BR,12/5/2020 14:42
304,Kavaratti,10.57,72.64,82.6,78,0,11.61,IN,12/5/2020 14:42
305,Hofn,64.25,-15.21,24.96,78,100,7.85,IS,12/5/2020 14:42
306,Kavieng,-2.57,150.8,82.67,73,57,11.54,PG,12/5/2020 14:42
307,Santa Luzia,-19.77,-43.85,82.4,69,40,14.99,BR,12/5/2020 14:41
308,Najran,17.49,44.13,84.2,28,0,9.17,SA,12/5/2020 14:42
309,Kashiwazaki,37.37,138.55,42.01,94,67,9.19,JP,12/5/2020 14:42
310,Vila,42.03,-8.16,45,87,100,1.99,PT,12/5/2020 14:42
311,Zhigansk,66.77,123.37,-22.36,87,62,12.82,RU,12/5/2020 14:42
312,Narsaq,60.92,-46.05,33.8,80,75,3.36,GL,12/5/2020 14:42
313,Jilib,0.49,42.79,80.31,69,15,9.26,SO,12/5/2020 14:42
314,Samarai,-10.62,150.67,81.27,83,73,3.4,PG,12/5/2020 14:42
315,Kununurra,-15.77,128.73,82.4,88,79,2.24,AU,12/5/2020 14:42
316,Marquette,46.53,-87.63,28,76,94,3,US,12/5/2020 14:42
317,Taoudenni,22.68,-3.98,81.43,20,59,18.19,ML,12/5/2020 14:42
318,Marica,-22.92,-42.82,84.2,83,75,12.75,BR,12/5/2020 14:40
319,Marystown,47.17,-55.15,49.73,81,97,17.49,CA,12/5/2020 14:41
320,Siyabuswa,-25.11,29.04,79.83,41,52,17.25,ZA,12/5/2020 14:42
321,Ures,29.43,-110.4,48.99,41,0,4,MX,12/5/2020 14:42
322,Constitucion,-35.33,-72.42,65.7,60,5,6.4,CL,12/5/2020 14:39
323,Huarmey,-10.07,-78.15,71.31,70,100,8.5,PE,12/5/2020 14:42
324,Berezovyy,51.67,135.7,5.65,84,0,8.37,RU,12/5/2020 14:42
325,Jishou,28.32,109.72,44.06,69,84,1.57,CN,12/5/2020 14:42
326,Mananjary,-21.22,48.33,75.09,90,100,13.56,MG,12/5/2020 14:42
327,Manta,-0.95,-80.73,75.2,83,90,11.41,EC,12/5/2020 14:39
328,Severodvinsk,64.56,39.83,26.6,92,90,6.71,RU,12/5/2020 14:42
329,Cidreira,-30.18,-50.21,66.2,71,99,13.89,BR,12/5/2020 14:42
330,Ukiah,39.15,-123.21,41,54,1,2.1,US,12/5/2020 14:42
331,Burnie,-41.07,145.92,53.01,96,55,7,AU,12/5/2020 14:42
332,Mogadishu,2.04,45.34,80.06,74,0,12.75,SO,12/5/2020 14:41
333,Conde,-7.26,-34.91,86,62,40,14.99,BR,12/5/2020 14:42
334,Oussouye,12.48,-16.55,91.4,41,0,4.7,SN,12/5/2020 14:42
335,Mackenzie,55.3,-123.17,33.8,100,90,2.24,CA,12/5/2020 14:42
336,Simao,22.79,100.97,51.67,94,17,2.13,CN,12/5/2020 14:42
337,Notodden,59.56,9.26,34,94,75,6.33,NO,12/5/2020 14:42
338,Abu Samrah,35.3,37.18,57.36,59,100,7.94,SY,12/5/2020 14:42
339,Horqueta,-23.34,-57.06,72.27,89,100,7.56,PY,12/5/2020 14:42
340,Arona,28.1,-16.68,71.6,56,75,10.29,ES,12/5/2020 14:40
341,Pimenta Bueno,-11.67,-61.19,93.09,48,70,3.8,BR,12/5/2020 14:42
342,Cam Ranh,11.92,109.16,77,69,40,11.41,VN,12/5/2020 14:42
343,Comrie,56.38,-3.99,42.01,96,72,5.14,GB,12/5/2020 14:42
344,Escanaba,45.75,-87.06,28.99,79,90,8.05,US,12/5/2020 14:42
345,Woodhaven,42.14,-83.24,33.01,85,75,6.93,US,12/5/2020 14:42
346,Kathmandu,27.72,85.32,55.4,82,20,3.36,NP,12/5/2020 14:39
347,West Mifflin,40.36,-79.87,37.99,86,90,6.93,US,12/5/2020 14:42
348,Chicama,-7.84,-79.15,68,82,100,11.41,PE,12/5/2020 14:42
349,Sakaiminato,35.55,133.23,41,80,20,1.12,JP,12/5/2020 14:42
350,Sibolga,1.74,98.78,77.23,83,100,1.97,ID,12/5/2020 14:42
351,Soyo,-6.13,12.37,77.41,87,100,8.3,AO,12/5/2020 14:42
352,Sao Filipe,14.9,-24.5,76.8,74,25,5.44,CV,12/5/2020 14:42
353,Xiuyan,40.29,123.27,28,90,0,2.82,CN,12/5/2020 14:42
354,Romitan,39.93,64.38,30.2,42,0,6.93,UZ,12/5/2020 14:42
355,Olafsvik,64.89,-23.71,23.09,89,20,5.75,IS,12/5/2020 14:42
356,Yumen,40.28,97.2,17.42,88,67,1.74,CN,12/5/2020 14:42
357,Enterprise,36.03,-115.24,37.4,19,1,1.5,US,12/5/2020 14:42
358,Robertsport,6.75,-11.37,82.08,74,54,8.57,LR,12/5/2020 14:42
359,Fenoarivo,-18.93,47.44,77,61,40,16.11,MG,12/5/2020 14:42
360,Leshukonskoye,64.9,45.76,23.94,96,100,9.24,RU,12/5/2020 14:42
361,Harnosand,62.63,17.94,37.4,93,98,3.36,SE,12/5/2020 14:42
362,Chifeng,42.27,118.96,7.32,85,30,6.6,CN,12/5/2020 14:42
363,La Peca,-5.61,-78.44,69.37,86,100,1.28,PE,12/5/2020 14:42
364,Puerto Madero,14.72,-92.42,77,94,40,4.7,MX,12/5/2020 14:42
365,Erenhot,43.65,111.98,8.06,93,46,9.26,CN,12/5/2020 14:42
366,Egvekinot,66.32,-179.17,5.65,97,73,0.87,RU,12/5/2020 14:42
367,Makanya,-4.37,37.83,80.31,62,24,5.86,TZ,12/5/2020 14:42
368,Copiapo,-27.37,-70.33,62.6,67,75,6.93,CL,12/5/2020 14:42
369,Les Cayes,18.2,-73.75,80.91,74,30,3.96,HT,12/5/2020 14:42
370,Kamwenge,0.19,30.45,69.21,84,90,1.34,UG,12/5/2020 14:42
371,Grindavik,63.84,-22.43,24.8,68,75,9.17,IS,12/5/2020 14:42
372,Voh,-20.97,164.7,73.26,82,1,3.29,NC,12/5/2020 14:42
373,Pierre,44.37,-100.35,36,69,1,18.34,US,12/5/2020 14:39
374,Tuchola,53.59,17.86,48.99,84,90,12.93,PL,12/5/2020 14:42
375,Bouna,9.27,-3,99.27,16,59,5.46,CI,12/5/2020 14:42
376,Tupik,54.43,119.93,4.51,89,98,3.22,RU,12/5/2020 14:42
377,Imbituba,-28.24,-48.67,69.8,77,75,9.17,BR,12/5/2020 14:42
378,Giraltovce,49.11,21.52,53.6,66,40,9.17,SK,12/5/2020 14:42
379,Abaza,52.66,90.09,1.67,90,1,2.21,RU,12/5/2020 14:42
380,Berezhany,49.45,24.93,46.4,87,75,6.71,UA,12/5/2020 14:42
381,Torrington,41.8,-73.12,36,95,100,12.24,US,12/5/2020 14:42
382,Marsaxlokk,35.84,14.54,68,77,20,20.8,MT,12/5/2020 14:42
383,Tosya,41.02,34.04,45.9,57,0,1.57,TR,12/5/2020 14:40
384,Bangkalan,-7.05,112.74,79.3,86,100,12.41,ID,12/5/2020 14:42
385,Zhuanghe,39.7,122.99,32.95,85,11,6.76,CN,12/5/2020 14:43
386,Izvoarele Sucevei,47.75,25.18,37.4,88,0,5.48,RO,12/5/2020 14:43
387,Tukrah,32.53,20.58,67.42,47,0,9.01,LY,12/5/2020 14:43
388,Ostrovnoy,68.05,39.51,31.84,95,100,21.81,RU,12/5/2020 14:43
389,Kalmunai,7.42,81.82,80.62,82,97,2.24,LK,12/5/2020 14:43
390,Funtua,11.52,7.31,90.48,14,22,8.12,NG,12/5/2020 14:43
391,Sonoita,31.85,-112.83,42.01,25,0,3.2,MX,12/5/2020 14:43
392,Nabire,-3.37,135.48,78.89,86,99,2.95,ID,12/5/2020 14:43
393,Basco,20.45,121.97,76.86,85,90,33.11,PH,12/5/2020 14:43
394,Ust-Nera,64.57,143.2,-27,76,87,2.75,RU,12/5/2020 14:43
395,Puerto Madryn,-42.77,-65.04,80.35,19,0,10.25,AR,12/5/2020 14:43
396,Guerande,47.33,-2.43,51.8,66,75,12.75,FR,12/5/2020 14:43
397,Dwarka,22.24,68.97,75.45,75,0,10.13,IN,12/5/2020 14:43
398,Mae Sai,20.43,99.88,64.99,93,0,1.3,TH,12/5/2020 14:43
399,Husavik,66.04,-17.34,6.8,84,0,5.82,IS,12/5/2020 14:43
400,Yuza,39,139.92,43.93,80,29,4.88,JP,12/5/2020 14:43
401,Kiunga,-6.12,141.29,74.39,98,100,1.74,PG,12/5/2020 14:43
402,North Platte,41.12,-100.77,24.8,68,1,8.05,US,12/5/2020 14:38
403,Naifaru,5.44,73.37,83.14,76,100,13.09,MV,12/5/2020 14:43
404,Kokopo,-4.35,152.26,79.57,79,94,5.86,PG,12/5/2020 14:43
405,Moranbah,-22,148.05,73.04,71,18,6.49,AU,12/5/2020 14:43
406,Chute-Aux-Outardes,49.12,-68.4,33.8,80,90,4.7,CA,12/5/2020 14:43
407,Boguchany,58.38,97.45,5.99,91,100,9.91,RU,12/5/2020 14:43
408,Tarko-Sale,64.92,77.78,10,89,5,15.32,RU,12/5/2020 14:43
409,Trinidad,-14.83,-64.9,78.8,88,75,5.82,BO,12/5/2020 14:41
410,Longyearbyen,78.22,15.64,12.2,61,0,20.8,SJ,12/5/2020 14:43
411,Janauba,-15.8,-43.31,88.2,52,94,4.38,BR,12/5/2020 14:43
412,Dali,25.7,100.18,44.98,76,0,4.68,CN,12/5/2020 14:43
413,Ndioum,16.51,-14.65,95.04,16,99,7.05,SN,12/5/2020 14:43
414,Ugoofaaru,5.67,73,82.78,78,100,14.12,MV,12/5/2020 14:43
415,Khani,41.96,42.96,55.4,67,0,25.28,GE,12/5/2020 14:43
416,San Luis,-33.3,-66.34,73.62,33,0,5.41,AR,12/5/2020 14:43
417,Yasinya,48.28,24.36,41.36,76,0,2.24,UA,12/5/2020 14:43
418,Salalah,17.02,54.09,82.4,58,0,4.7,OM,12/5/2020 14:43
419,Mandalgovi,45.76,106.27,-4.02,89,0,20.11,MN,12/5/2020 14:43
420,Xining,36.62,101.77,20.26,86,44,1.16,CN,12/5/2020 14:43
421,Clyde River,70.47,-68.59,1.4,54,1,13.87,CA,12/5/2020 14:43
422,San Quintin,30.48,-115.95,54.3,41,0,1.97,MX,12/5/2020 14:43
423,Sassandra,4.95,-6.08,83.77,73,58,7.23,CI,12/5/2020 14:43
424,Makakilo City,21.35,-158.09,75.2,78,1,3.36,US,12/5/2020 14:38
425,Port Said,31.26,32.28,69.8,52,20,9.17,EG,12/5/2020 14:43
426,Kargasok,59.06,80.86,10.08,95,100,9.8,RU,12/5/2020 14:43
427,Peniche,39.36,-9.38,57,77,41,14,PT,12/5/2020 14:43
428,Yaan,7.38,8.57,96.73,27,55,2.66,NG,12/5/2020 14:43
429,Meulaboh,4.14,96.13,74.95,89,100,7.09,ID,12/5/2020 14:43
430,Vabalninkas,55.97,24.75,39.97,87,100,17.02,LT,12/5/2020 14:43
431,Tynda,55.17,124.72,-1.46,89,100,1.36,RU,12/5/2020 14:43
432,Muzhi,65.37,64.67,15.33,93,93,3,RU,12/5/2020 14:43
433,Altay,47.87,88.12,9.32,64,0,3.56,CN,12/5/2020 14:43
434,Alofi,-19.06,-169.92,75.2,100,87,6.93,NU,12/5/2020 14:43
435,Faanui,-16.48,-151.75,79.66,80,100,18.52,PF,12/5/2020 14:43
436,Nyuksenitsa,60.41,44.24,22.03,96,65,8.41,RU,12/5/2020 14:43
437,Kurush,41.28,47.83,42.8,93,90,5.82,RU,12/5/2020 14:43
438,Esperance,-33.87,121.9,55.4,76,75,6.93,AU,12/5/2020 14:43
439,Varadero,23.15,-81.25,75.2,88,20,4.7,CU,12/5/2020 14:43
440,Grenaa,56.42,10.88,45,87,75,11.41,DK,12/5/2020 14:43
441,Waitati,-45.75,170.57,51.01,78,34,5.99,NZ,12/5/2020 14:43
442,West Odessa,31.84,-102.5,35.6,31,40,9.17,US,12/5/2020 14:43
443,Bima,-8.47,118.72,78.28,85,100,1.57,ID,12/5/2020 14:43
444,Cockburn Town,21.46,-71.14,79.39,74,14,13.85,TC,12/5/2020 14:43
445,Cozumel,20.51,-86.95,75.2,100,75,3.36,MX,12/5/2020 14:43
446,Lincoln,40.8,-96.67,34,64,1,13.87,US,12/5/2020 14:42
447,Carauari,-4.88,-66.9,87.33,68,88,4.41,BR,12/5/2020 14:43
448,Gallup,35.53,-108.74,8.6,65,1,4.36,US,12/5/2020 14:43
449,Farafangana,-22.82,47.83,73.87,75,100,12.97,MG,12/5/2020 14:43
450,Port Lincoln,-34.73,135.87,57.15,64,28,20.31,AU,12/5/2020 14:43
451,Jati,24.35,68.27,75.09,73,0,8.19,PK,12/5/2020 14:43
452,Tevaitoa,-16.78,-151.5,80.19,78,100,19.64,PF,12/5/2020 14:43
453,Stolin,51.89,26.85,40.87,82,100,14.65,BY,12/5/2020 14:43
454,Rocha,-34.48,-54.33,62.62,47,80,8.57,UY,12/5/2020 14:43
455,Kirkuk,35.47,44.39,57.83,50,100,3.74,IQ,12/5/2020 14:43
456,Labuhan,-6.88,112.21,80.35,85,100,13.27,ID,12/5/2020 14:43
457,Coahuayana,18.73,-103.68,68,82,75,11.41,MX,12/5/2020 14:43
458,Samana,19.21,-69.34,77,83,20,6.55,DO,12/5/2020 14:43
459,Sumbawanga,-7.97,31.62,71.6,68,75,5.82,TZ,12/5/2020 14:43
460,Broken Hill,-31.95,141.43,62.6,55,0,18.34,AU,12/5/2020 14:43
461,Pangody,65.85,74.49,6.03,94,48,11.74,RU,12/5/2020 14:43
462,Kondinskoye,59.65,67.41,11.77,95,10,7,RU,12/5/2020 14:43
463,Rajula,21.05,71.43,74.08,50,0,2.89,IN,12/5/2020 14:42
464,Klaksvik,62.23,-6.59,39.2,80,99,4.7,FO,12/5/2020 14:43
465,Pocatello,42.87,-112.45,6.8,84,1,6.93,US,12/5/2020 14:40
466,Bahia Blanca,-38.72,-62.27,76.05,22,0,7.67,AR,12/5/2020 14:43
467,Oksfjord,70.24,22.35,33.8,92,0,10.29,NO,12/5/2020 14:43
468,Coquimbo,-29.95,-71.34,57.2,82,90,5.82,CL,12/5/2020 14:43
469,Sao Joao Do Piaui,-8.36,-42.25,96.87,33,10,5.84,BR,12/5/2020 14:43
470,Mikuni,36.22,136.15,41,93,40,3.36,JP,12/5/2020 14:43
471,Ust-Uda,54.17,103.03,-3.55,91,31,1.32,RU,12/5/2020 14:43
472,Skibbereen,51.55,-9.27,44.6,81,40,16.11,IE,12/5/2020 14:43
473,Bulgan,48.81,103.53,3.65,89,100,3.71,MN,12/5/2020 14:43
474,Klimovo,52.38,32.19,27.41,95,0,13.27,RU,12/5/2020 14:43
475,Andenes,69.31,16.12,34,80,75,18.34,NO,12/5/2020 14:41
476,Salmas,38.2,44.77,33.8,80,90,4.7,IR,12/5/2020 14:43
477,Mathbaria,22.29,89.96,67.17,77,8,4.05,BD,12/5/2020 14:43
478,Solwezi,-12.17,26.39,72.75,88,86,3.53,ZM,12/5/2020 14:43
479,Grand-Santi,4.25,-54.38,91,46,100,4.52,GF,12/5/2020 14:43
480,Toamasina,-18.17,49.38,84.2,74,40,6.93,MG,12/5/2020 14:43
481,Luganville,-15.53,167.17,76.48,85,80,2.75,VU,12/5/2020 14:43
482,Vestmanna,62.16,-7.17,39.2,80,92,4.7,FO,12/5/2020 14:43
483,Demidov,55.27,31.52,26.69,95,15,9.73,RU,12/5/2020 14:43
484,Goderich,43.75,-81.72,32,88,95,11.41,CA,12/5/2020 14:41
485,Talcher,20.95,85.22,68.61,45,30,1.03,IN,12/5/2020 14:43
486,Samur,41.83,48.49,42.31,89,100,9.19,RU,12/5/2020 14:43
487,Mragowo,53.86,21.31,46.4,81,0,10.29,PL,12/5/2020 14:43
488,Kamakwie,9.5,-12.23,95.7,36,46,2.55,SL,12/5/2020 14:43
489,Leavenworth,39.23,-95.03,36,72,1,5.82,US,12/5/2020 14:43
490,Isangel,-19.55,169.27,76.28,85,1,8.46,VU,12/5/2020 14:43
491,Ferndale,42.46,-83.13,34,86,90,3.36,US,12/5/2020 14:42
492,Isiro,2.77,27.62,73.54,82,100,0.34,CD,12/5/2020 14:43
493,Pryozerne,45.27,36.33,43.12,71,0,23.17,UA,12/5/2020 14:43
494,Carmo,-21.93,-42.61,85.51,71,57,0.6,BR,12/5/2020 14:43
495,Inhambane,-23.86,35.38,75.2,88,75,4.7,MZ,12/5/2020 14:43
496,Poum,-20.23,164.02,77.43,79,0,11.86,NC,12/5/2020 14:43
497,Saint-Pierre,-21.34,55.48,80.6,69,20,1.12,RE,12/5/2020 14:43
498,Mercedes,-34.65,-59.43,69.01,49,0,3,AR,12/5/2020 14:38
499,Kailua,21.4,-157.74,77,73,75,6.93,US,12/5/2020 14:42
500,Katsuura,35.13,140.3,48.2,87,75,6.93,JP,12/5/2020 14:43
501,Visnes,59.36,5.22,42.8,64,94,8.05,NO,12/5/2020 14:43
502,Kirakira,-10.45,161.92,78.91,78,62,3.22,SB,12/5/2020 14:43
503,Manvi,15.98,77.05,72.9,59,0,9.73,IN,12/5/2020 14:43
504,Tougan,13.07,-3.07,99.14,9,37,4.61,BF,12/5/2020 14:43
505,Kloulklubed,7.04,134.26,75.2,94,75,3.36,PW,12/5/2020 14:43
506,Baruun-Urt,46.68,113.28,-2.78,90,0,7.65,MN,12/5/2020 14:43
507,Chipata,-13.63,32.65,75.02,75,99,1.3,ZM,12/5/2020 14:43
508,Kovdor,67.57,30.48,27.37,98,100,6.33,RU,12/5/2020 14:43
509,Zwedru,6.07,-8.13,91.17,47,97,1.54,LR,12/5/2020 14:43
510,Bayan,46.08,127.4,4.53,94,0,4.14,CN,12/5/2020 14:43
511,Nanortalik,60.14,-45.24,32.76,96,100,5.61,GL,12/5/2020 14:43
512,Koszalin,54.19,16.17,46,78,73,13.62,PL,12/5/2020 14:42
513,Alekseyevsk,57.84,108.35,1.06,89,100,11.92,RU,12/5/2020 14:43
514,Port-Gentil,-0.72,8.78,86,70,40,13.87,GA,12/5/2020 14:43
515,Bonthe,7.53,-12.51,84.51,70,50,8.03,SL,12/5/2020 14:43
516,Divnoye,45.91,43.35,26.55,82,0,15.39,RU,12/5/2020 14:43
517,Baherden,38.44,57.43,39.56,62,5,7.67,TM,12/5/2020 14:43
518,Tharad,24.4,71.63,73.42,38,0,4.34,IN,12/5/2020 14:43
519,San Carlos De Bariloche,-41.15,-71.31,69.8,21,0,4.7,AR,12/5/2020 14:43
520,Punta Cardon,11.66,-70.22,82.49,71,19,12.62,VE,12/5/2020 14:43
521,Cosala,24.41,-106.69,61,73,1,2.62,MX,12/5/2020 14:43
522,Cabedelo,-6.98,-34.83,86,62,40,14.99,BR,12/5/2020 14:40
523,Wagga Wagga,-35.12,147.37,62.6,100,75,17.22,AU,12/5/2020 14:43
524,Progreso,21.28,-89.67,78.01,94,40,4.7,MX,12/5/2020 14:43
525,Lazarev,52.23,141.51,10.65,91,5,6.76,RU,12/5/2020 14:43
526,Gewane,10.17,40.65,91.27,23,8,8.39,ET,12/5/2020 14:43
527,Porto Walter,-8.27,-72.74,77.52,87,95,3.94,BR,12/5/2020 14:43
528,Nuuk,64.18,-51.72,32,97,75,24.16,GL,12/5/2020 14:43
529,Mokrous,51.23,47.52,9.19,95,7,9.24,RU,12/5/2020 14:43
530,Port Hardy,50.7,-127.42,53.6,76,90,25.28,CA,12/5/2020 14:43
531,Dudinka,69.41,86.18,19.4,85,75,26.84,RU,12/5/2020 14:43
532,Balakhninskiy,58.01,114.28,-0.81,87,100,3.78,RU,12/5/2020 14:43
533,Gamba,-2.65,10,78.93,81,27,8.63,GA,12/5/2020 14:43
534,Vitim,59.45,112.56,3,88,100,15.28,RU,12/5/2020 14:43
535,Mocuba,-16.84,36.99,81.14,75,96,5.61,MZ,12/5/2020 14:43
536,Yeniseysk,58.45,92.17,5.94,94,100,7.27,RU,12/5/2020 14:43
537,San Buenaventura,27.08,-101.53,46.99,86,75,1.57,MX,12/5/2020 14:43
538,La Ronge,55.1,-105.28,28.4,86,99,4.7,CA,12/5/2020 14:43
539,Yatou,37.15,122.38,32.31,80,0,4.43,CN,12/5/2020 14:43
540,Ust-Tsilma,65.44,52.15,17.51,94,87,7.61,RU,12/5/2020 14:43
541,Cascais,38.7,-9.42,55,71,20,9.17,PT,12/5/2020 14:43
542,Tanete,-3.94,119.78,77.81,83,53,3.85,ID,12/5/2020 14:43
543,Zaysan,47.47,84.87,8.37,93,40,1.81,KZ,12/5/2020 14:43
544,Skovorodino,53.98,123.92,1.42,92,88,2.3,RU,12/5/2020 14:43
545,Avera,33.19,-82.53,44.6,81,1,13.87,US,12/5/2020 14:43
546,Sisimiut,66.94,-53.67,31.19,95,100,8.86,GL,12/5/2020 14:43
547,Isabela,6.71,121.97,80.42,79,50,4.23,PH,12/5/2020 14:43
548,Ornskoldsvik,63.29,18.72,39.2,100,98,4.7,SE,12/5/2020 14:43
549,Bejar,40.39,-5.76,45,58,100,1.99,ES,12/5/2020 14:43
550,Yeppoon,-23.13,150.73,75.2,73,71,5.82,AU,12/5/2020 14:43
551,Kathu,7.92,98.33,84.99,78,20,10.29,TH,12/5/2020 14:43
552,Chemainus,48.92,-123.72,44.6,100,40,2.62,CA,12/5/2020 14:39
